{"type":"FeatureCollection","features":[{"type":"Feature","id":1,"geometry":{"type":"Point","coordinates":[111.09370000000007,34.04890000000006]},"properties":{"OBJECTID":1,"name":"Arizona","lat":34.048900000000003,"long":111.0937,"year_2013":72.400000000000006,"year_2014":74.200000000000003,"year_2015":75,"year_2016":71.599999999999994,"year_2017":72.400000000000006,"year_2018":76,"year_2019":73.799999999999997,"year_2020":75.700000000000003}},{"type":"Feature","id":2,"geometry":{"type":"Point","coordinates":[119.41790000000003,36.778300000000058]},"properties":{"OBJECTID":2,"name":"California","lat":36.778300000000002,"long":119.4179,"year_2013":69.299999999999997,"year_2014":72.200000000000003,"year_2015":72.099999999999994,"year_2016":69.5,"year_2017":69.799999999999997,"year_2018":71.099999999999994,"year_2019":68.900000000000006,"year_2020":74.200000000000003}},{"type":"Feature","id":3,"geometry":{"type":"Point","coordinates":[105.78210000000007,39.550100000000043]},"properties":{"OBJECTID":3,"name":"Colorado","lat":39.5501,"long":105.7821,"year_2013":60.700000000000003,"year_2014":60,"year_2015":62.600000000000001,"year_2016":59.700000000000003,"year_2017":59.100000000000001,"year_2018":61.899999999999999,"year_2019":62.899999999999999,"year_2020":58.899999999999999}},{"type":"Feature","id":4,"geometry":{"type":"Point","coordinates":[81.51580000000007,27.664800000000071]},"properties":{"OBJECTID":4,"name":"Florida","lat":27.6648,"long":81.515799999999999,"year_2013":80,"year_2014":79.700000000000003,"year_2015":80,"year_2016":81.099999999999994,"year_2017":80.400000000000006,"year_2018":82.400000000000006,"year_2019":81.900000000000006,"year_2020":80.5}},{"type":"Feature","id":5,"geometry":{"type":"Point","coordinates":[89.39850000000007,40.63310000000007]},"properties":{"OBJECTID":5,"name":"Illinois","lat":40.633099999999999,"long":89.398499999999999,"year_2013":68.599999999999994,"year_2014":64.700000000000003,"year_2015":70.400000000000006,"year_2016":70.799999999999997,"year_2017":68.799999999999997,"year_2018":70.299999999999997,"year_2019":71.599999999999994,"year_2020":65.599999999999994}},{"type":"Feature","id":6,"geometry":{"type":"Point","coordinates":[69.445500000000038,45.253800000000069]},"properties":{"OBJECTID":6,"name":"Maine","lat":45.253799999999998,"long":69.445499999999996,"year_2013":56.700000000000003,"year_2014":56.399999999999999,"year_2015":61.799999999999997,"year_2016":59.100000000000001,"year_2017":61.100000000000001,"year_2018":57.899999999999999,"year_2019":55.299999999999997,"year_2020":57.200000000000003}},{"type":"Feature","id":7,"geometry":{"type":"Point","coordinates":[71.382400000000075,42.407200000000046]},"properties":{"OBJECTID":7,"name":"Massachusetts","lat":42.407200000000003,"long":71.382400000000004,"year_2013":60.799999999999997,"year_2014":62.299999999999997,"year_2015":66.200000000000003,"year_2016":64.599999999999994,"year_2017":65.099999999999994,"year_2018":65.200000000000003,"year_2019":62,"year_2020":62.700000000000003}},{"type":"Feature","id":8,"geometry":{"type":"Point","coordinates":[85.602400000000046,44.314800000000048]},"properties":{"OBJECTID":8,"name":"Michigan","lat":44.314799999999998,"long":85.602400000000003,"year_2013":59.5,"year_2014":58.799999999999997,"year_2015":64.599999999999994,"year_2016":63.5,"year_2017":62.600000000000001,"year_2018":62.399999999999999,"year_2019":62.299999999999997,"year_2020":58.100000000000001}},{"type":"Feature","id":9,"geometry":{"type":"Point","coordinates":[94.685900000000061,46.729600000000062]},"properties":{"OBJECTID":9,"name":"Minnesota","lat":46.729599999999998,"long":94.685900000000004,"year_2013":61.5,"year_2014":58.5,"year_2015":63.799999999999997,"year_2016":60.700000000000003,"year_2017":60.799999999999997,"year_2018":59,"year_2019":60.200000000000003,"year_2020":56.5}},{"type":"Feature","id":10,"geometry":{"type":"Point","coordinates":[89.39850000000007,32.354700000000037]},"properties":{"OBJECTID":10,"name":"Mississippi","lat":32.354700000000001,"long":89.398499999999999,"year_2013":77,"year_2014":76.5,"year_2015":76.299999999999997,"year_2016":79,"year_2017":74.5,"year_2018":78.900000000000006,"year_2019":81.200000000000003,"year_2020":75.5}},{"type":"Feature","id":11,"geometry":{"type":"Point","coordinates":[71.572400000000073,43.193900000000042]},"properties":{"OBJECTID":11,"name":"New Hampshire","lat":43.193899999999999,"long":71.572400000000002,"year_2013":57.399999999999999,"year_2014":57.799999999999997,"year_2015":62.700000000000003,"year_2016":60.5,"year_2017":62.200000000000003,"year_2018":61.100000000000001,"year_2019":57.5,"year_2020":58.600000000000001}},{"type":"Feature","id":12,"geometry":{"type":"Point","coordinates":[74.006000000000029,40.712800000000072]},"properties":{"OBJECTID":12,"name":"New York","lat":40.712800000000001,"long":74.006,"year_2013":58.299999999999997,"year_2014":60.100000000000001,"year_2015":65,"year_2016":62.899999999999999,"year_2017":62.299999999999997,"year_2018":63.600000000000001,"year_2019":60.399999999999999,"year_2020":59.600000000000001}},{"type":"Feature","id":13,"geometry":{"type":"Point","coordinates":[79.019300000000044,35.759600000000034]},"properties":{"OBJECTID":13,"name":"North Carolina","lat":35.759599999999999,"long":79.019300000000001,"year_2013":69.400000000000006,"year_2014":71.200000000000003,"year_2015":71.599999999999994,"year_2016":74.299999999999997,"year_2017":70.5,"year_2018":76.200000000000003,"year_2019":74.900000000000006,"year_2020":69.799999999999997}},{"type":"Feature","id":14,"geometry":{"type":"Point","coordinates":[99.901800000000037,31.968600000000038]},"properties":{"OBJECTID":14,"name":"Texas","lat":31.968599999999999,"long":99.901799999999994,"year_2013":78.200000000000003,"year_2014":76.400000000000006,"year_2015":79.200000000000003,"year_2016":77.599999999999994,"year_2017":76.5,"year_2018":76.200000000000003,"year_2019":81.5,"year_2020":74.099999999999994}},{"type":"Feature","id":15,"geometry":{"type":"Point","coordinates":[94.685900000000061,46.729600000000062]},"properties":{"OBJECTID":15,"name":"Wisconsin","lat":46.729599999999998,"long":94.685900000000004,"year_2013":60.799999999999997,"year_2014":58.200000000000003,"year_2015":64.700000000000003,"year_2016":62.600000000000001,"year_2017":62.200000000000003,"year_2018":61.200000000000003,"year_2019":62.100000000000001,"year_2020":57.299999999999997}}]}